<?xml version="1.0" encoding="UTF-8" standalone="yes"?>
<locations>
    <location id="74971" icon="Tnb Kiosk" lat="37.761466" long="-122.476698">
        <name>19TH AVE 76 #02</name>
        <street>1400 19TH AVE</street>
        <city>SAN FRANCISCO</city>
        <state>CA</state>
        <zip>94122</zip>
        <phone>(415) 731-6047</phone>
        <notes></notes>
    </location>
    <location id="8068" icon="SGS Location" lat="37.609751" long="-120.993080">
        <name>Airpath Communications</name>
        <street>1418 CROWS LANDING RD</street>
        <city>MODESTO</city>
        <state>CA</state>
        <zip>95351-5350</zip>
        <phone>209-491-0500</phone>
        <notes></notes>
    </location>
    <location id="74124" icon="Tnb Kiosk" lat="37.848152" long="-122.275807">
        <name>ALCATRAZ MARKET</name>
        <street>1601 ALCATRAZ AVE</street>
        <city>BERKELEY</city>
        <state>CA</state>
        <zip>94703</zip>
        <phone>(510) 655-1959</phone>
        <notes></notes>
    </location>
    <location id="60310" icon="SGS Location" lat="37.355359" long="-121.849384">
        <name>ALUM ROCK WIRELESS</name>
        <street>1982 ALUM ROCK AVE STE B</street>
        <city>SAN JOSE</city>
        <state>CA</state>
        <zip>95116-2002</zip>
        <phone>408-770-9572</phone>
        <notes></notes>
    </location>
    <location id="43756" icon="SGS Location" lat="37.610868" long="-120.993642">
        <name>ARMEX</name>
        <street>1337 CROWS LANDING RD STE D</street>
        <city>MODESTO</city>
        <state>CA</state>
        <zip>95351-7306</zip>
        <phone>209-527-1894</phone>
        <notes></notes>
    </location>
    <location id="16576" icon="SGS Location" lat="37.000206" long="-121.560276">
        <name>Arteagas Super Save #2</name>
        <street>6906 CHESTNUT ST</street>
        <city>GILROY</city>
        <state>CA</state>
        <zip>95020-6635</zip>
        <phone>408-847-7542</phone>
        <notes></notes>
    </location>
    <location id="74123" icon="Tnb Kiosk" lat="37.854265" long="-122.271133">
        <name>ASHBY SUPER MARKET</name>
        <street>2948 MARTIN LUTHER KING JR WAY</street>
        <city>BERKELEY</city>
        <state>CA</state>
        <zip>94703</zip>
        <phone>(510) 647-3672</phone>
        <notes></notes>
    </location>
    <location id="74398" icon="Tnb Kiosk" lat="37.654648" long="-122.42753">
        <name>BRENTWOOD SERVICE STATION</name>
        <street>209 EL CAMINO REAL</street>
        <city>S SAN FRANCISCO</city>
        <state>CA</state>
        <zip>94080</zip>
        <phone>(650) 588-7484</phone>
        <notes></notes>
    </location>
    <location id="73257" icon="Tnb Kiosk" lat="37.780836" long="-122.414398">
        <name>BROTHERS MARKET ENTERPRISE INC</name>
        <street>136 MCALLISTER ST</street>
        <city>SAN FRANCISCO</city>
        <state>CA</state>
        <zip>94102</zip>
        <phone>(415) 861-5315</phone>
        <notes></notes>
    </location>
    <location id="60227" icon="SGS Location" lat="37.308292" long="-121.967018">
        <name>Cazadores Bottle Shop</name>
        <street>3777 WILLIAMS RD</street>
        <city>SAN JOSE</city>
        <state>CA</state>
        <zip>95117-2737</zip>
        <phone>408-246-5335</phone>
        <notes></notes>
    </location>
    <location id="61717" icon="SGS Location" lat="37.31709" long="-121.886076">
        <name>CECYS JIR</name>
        <street>349 WILLOW ST STE A</street>
        <city>SAN JOSE</city>
        <state>CA</state>
        <zip>95110-3217</zip>
        <phone>408-288-8939</phone>
        <notes></notes>
    </location>
    <location id="24888" icon="SGS Location" lat="37.86857" long="-122.292248">
        <name>Check Center #1</name>
        <street>2005 SAN PABLO AVE</street>
        <city>BERKELEY</city>
        <state>CA</state>
        <zip>94702-1613</zip>
        <phone>510-548-0324</phone>
        <notes></notes>
    </location>
    <location id="24890" icon="SGS Location" lat="37.545136" long="-121.982021">
        <name>Check Center #11</name>
        <street>39478 FREMONT BLVD</street>
        <city>FREMONT</city>
        <state>CA</state>
        <zip>94538-2117</zip>
        <phone>510-745-8117</phone>
        <notes></notes>
    </location>
    <location id="24897" icon="SGS Location" lat="38.458328" long="-122.716834">
        <name>Check Center #13</name>
        <street>1880 Mendocino Ave Suite F</street>
        <city>Santa Rosa</city>
        <state>CA</state>
        <zip>95401</zip>
        <phone>707-568-6070</phone>
        <notes></notes>
    </location>
    <location id="63472" icon="SGS Location" lat="38.427108" long="-122.741266">
        <name>CHECK CENTER #19</name>
        <street>711 STONY POINT RD STE 7</street>
        <city>SANTA ROSA</city>
        <state>CA</state>
        <zip>95407-6848</zip>
        <phone>707-544-2274</phone>
        <notes></notes>
    </location>
    <location id="24889" icon="SGS Location" lat="37.532657" long="-121.958507">
        <name>Check Center #2</name>
        <street>3992 WASHINGTON BLVD</street>
        <city>FREMONT</city>
        <state>CA</state>
        <zip>94538-4954</zip>
        <phone>510-651-8881</phone>
        <notes></notes>
    </location>
    <location id="63473" icon="SGS Location" lat="38.486997" long="-122.749134">
        <name>CHECK CENTER #20</name>
        <street>3585 INDUSTRIAL DR</street>
        <city>SANTA ROSA</city>
        <state>CA</state>
        <zip>95403-2012</zip>
        <phone>707-545-2274</phone>
        <notes></notes>
    </location>
    <location id="24891" icon="SGS Location" lat="37.65733" long="-122.097928">
        <name>Check Center #3</name>
        <street>24933 SANTA CLARA ST STE 4</street>
        <city>HAYWARD</city>
        <state>CA</state>
        <zip>94544-2148</zip>
        <phone>510-783-4630</phone>
        <notes></notes>
    </location>
    <location id="24892" icon="SGS Location" lat="37.799877" long="-122.25223">
        <name>Check Center #4</name>
        <street>302 E 18TH ST</street>
        <city>OAKLAND</city>
        <state>CA</state>
        <zip>94606-1814</zip>
        <phone>510-835-8282</phone>
        <notes></notes>
    </location>
    <location id="24893" icon="SGS Location" lat="37.540436" long="-122.028022">
        <name>Check Center #5</name>
        <street>5710 THORNTON AVE</street>
        <city>NEWARK</city>
        <state>CA</state>
        <zip>94560-3826</zip>
        <phone>510-794-1099</phone>
        <notes></notes>
    </location>
    <location id="24894" icon="SGS Location" lat="37.935676" long="-122.363702">
        <name>Check Center #6</name>
        <street>1190 MACDONALD AVE STE E</street>
        <city>RICHMOND</city>
        <state>CA</state>
        <zip>94801-3169</zip>
        <phone>510-235-0175</phone>
        <notes></notes>
    </location>
    <location id="24895" icon="SGS Location" lat="38.232676" long="-122.637378">
        <name>Check Center #7</name>
        <street>155 PETALUMA BLVD N</street>
        <city>PETALUMA</city>
        <state>CA</state>
        <zip>94952-2904</zip>
        <phone>707-781-9333</phone>
        <notes></notes>
    </location>
    <location id="24896" icon="SGS Location" lat="38.358248" long="-122.712576">
        <name>Check Center #8</name>
        <street>6650 COMMERCE BLVD STE 9</street>
        <city>ROHNERT PARK</city>
        <state>CA</state>
        <zip>94928-2472</zip>
        <phone>707-584-5710</phone>
        <notes></notes>
    </location>
    <location id="20258" icon="SGS Location" lat="37.471871" long="-121.131368">
        <name>CONX TV</name>
        <street>4 N SALADO AVE</street>
        <city>PATTERSON</city>
        <state>CA</state>
        <zip>95363-2514</zip>
        <phone>209-222-3680</phone>
        <notes></notes>
    </location>
    <location id="73492" icon="Tnb Kiosk" lat="38.064013" long="-122.534608">
        <name>COUNTRY CLUB SHELL</name>
        <street>5821 NAVE DR</street>
        <city>NOVATO</city>
        <state>CA</state>
        <zip>94949</zip>
        <phone>(415) 798-6094</phone>
        <notes></notes>
    </location>
    <location id="73449" icon="Tnb Kiosk" lat="37.951443" long="-122.332674">
        <name>CWS &amp; DELHI FASHIONS</name>
        <street>13112 SAN PABLO AVE # B</street>
        <city>SAN PABLO</city>
        <state>CA</state>
        <zip>94806</zip>
        <phone>(510) 233-4911</phone>
        <notes></notes>
    </location>
    <location id="74704" icon="Tnb Kiosk" lat="37.783934" long="-122.412611">
        <name>DALDAS MARKET</name>
        <street>200 EDDY ST</street>
        <city>SAN FRANCISCO</city>
        <state>CA</state>
        <zip>94102</zip>
        <phone>(415) 441-2662</phone>
        <notes></notes>
    </location>
    <location id="73686" icon="Tnb Kiosk" lat="37.692864" long="-122.475056">
        <name>DALY CITY MARKET</name>
        <street>333 87TH ST</street>
        <city>DALY CITY</city>
        <state>CA</state>
        <zip>94015</zip>
        <phone>(650) 758-1266</phone>
        <notes></notes>
    </location>
    <location id="74387" icon="Tnb Kiosk" lat="37.699914" long="-122.463529">
        <name>DALY CITY MARKET</name>
        <street>6775 MISSION ST</street>
        <city>DALY CITY</city>
        <state>CA</state>
        <zip>94014</zip>
        <phone>(650) 991-2473</phone>
        <notes></notes>
    </location>
    <location id="31717" icon="SGS Location" lat="37.138729" long="-121.652852">
        <name>Deportes y Envios toluca</name>
        <street>235 W MAIN AVE</street>
        <city>MORGAN HILL</city>
        <state>CA</state>
        <zip>95037-4533</zip>
        <phone>408-782-7580</phone>
        <notes></notes>
    </location>
    <location id="11350" icon="SGS Location" lat="37.943118" long="-121.695864">
        <name>Discoteca Diaz</name>
        <street>7860 BRENTWOOD BLVD</street>
        <city>BRENTWOOD</city>
        <state>CA</state>
        <zip>94513-1039</zip>
        <phone>925-634-2837</phone>
        <notes></notes>
    </location>
    <location id="34145" icon="SGS Location" lat="37.474887" long="-122.209326">
        <name>Discoteca Dona Lety</name>
        <street>2821 MIDDLEFIELD RD</street>
        <city>REDWOOD CITY</city>
        <state>CA</state>
        <zip>94063-3326</zip>
        <phone>650-368-9434</phone>
        <notes></notes>
    </location>
    <location id="73191" icon="Tnb Kiosk" lat="37.806053" long="-121.23512">
        <name>DISCOUNT MARKET &amp; LIQUOR</name>
        <street>502 N UNION RD</street>
        <city>MANTECA</city>
        <state>CA</state>
        <zip>95337</zip>
        <phone>(209) 825-5733</phone>
        <notes></notes>
    </location>
    <location id="73463" icon="Tnb Kiosk" lat="37.74429" long="-122.420729">
        <name>DJ MARKET</name>
        <street>3278 MISSION ST</street>
        <city>SAN FRANCISCO</city>
        <state>CA</state>
        <zip>94110</zip>
        <phone>(415) 643-3655</phone>
        <notes></notes>
    </location>
    <location id="61822" icon="SGS Location" lat="37.941824" long="-122.347581">
        <name>EL CHARRITO WESTERN WEAR</name>
        <street>652 23RD ST</street>
        <city>RICHMOND</city>
        <state>CA</state>
        <zip>94804-1454</zip>
        <phone>510-215-7885</phone>
        <notes></notes>
    </location>
    <location id="7527" icon="SGS Location" lat="37.558835" long="-121.242542">
        <name>El Paisano Westley Market</name>
        <street>8629 State Highway 33</street>
        <city>Westley</city>
        <state>CA</state>
        <zip>95387</zip>
        <phone>209-894-3222</phone>
        <notes></notes>
    </location>
    <location id="43731" icon="SGS Location" lat="37.808125" long="-122.305399">
        <name>EZ Pay Check Cashing Ce</name>
        <street>1460 7TH ST STE A</street>
        <city>OAKLAND</city>
        <state>CA</state>
        <zip>94607-1983</zip>
        <phone>510-834-6300</phone>
        <notes></notes>
    </location>
    <location id="73575" icon="Tnb Kiosk" lat="37.714085" long="-122.4629">
        <name>FAIRVIEW MARKET</name>
        <street>295 ORIZABA AVE</street>
        <city>SAN FRANCISCO</city>
        <state>CA</state>
        <zip>94132</zip>
        <phone>(415) 584-6282</phone>
        <notes></notes>
    </location>
    <location id="73459" icon="Tnb Kiosk" lat="37.713423" long="-122.458859">
        <name>FAMILY MARKET</name>
        <street>198 BROAD ST</street>
        <city>SAN FRANCISCO</city>
        <state>CA</state>
        <zip>94112</zip>
        <phone>(415) 587-2458</phone>
        <notes></notes>
    </location>
    <location id="9392" icon="SGS Location" lat="38.24927" long="-122.054601">
        <name>Fashion 4U</name>
        <street>1461 W TEXAS ST</street>
        <city>FAIRFIELD</city>
        <state>CA</state>
        <zip>94533-5920</zip>
        <phone>707-435-0112</phone>
        <notes></notes>
    </location>
    <location id="73499" icon="Tnb Kiosk" lat="37.672111" long="-122.083963">
        <name>FAST &amp; EASY MART HAYWARD</name>
        <street>898 A STREET</street>
        <city>HAYWARD</city>
        <state>CA</state>
        <zip>94540</zip>
        <phone>(510) 581-1222</phone>
        <notes></notes>
    </location>
    <location id="73729" icon="Tnb Kiosk" lat="37.962524" long="-122.508791">
        <name>FRANCISCO 76/MARIN EXPRESS LUBE</name>
        <street>831 FRANCISCO BLVD E</street>
        <city>SAN RAFAEL</city>
        <state>CA</state>
        <zip>94901</zip>
        <phone>(415) 457-4272</phone>
        <notes></notes>
    </location>
    <location id="62449" icon="SGS Location" lat="37.354491" long="-122.016671">
        <name>FRONTERA #2110</name>
        <street>887 E EL CAMINO REAL</street>
        <city>SUNNYVALE</city>
        <state>CA</state>
        <zip>94087-2937</zip>
        <phone>408-774-1234</phone>
        <notes></notes>
    </location>
    <location id="62761" icon="SGS Location" lat="38.486997" long="-122.749134">
        <name>Frontera #2120</name>
        <street>1772 PINER RD</street>
        <city>SANTA ROSA</city>
        <state>CA</state>
        <zip>95403-7401</zip>
        <phone>707-579-2825</phone>
        <notes></notes>
    </location>
    <location id="74810" icon="Tnb Kiosk" lat="37.828159" long="-122.269169">
        <name>GALLAGHERS DRIVE-IN LIQUOR</name>
        <street>3849 MARTIN LUTHER KING JR WAY</street>
        <city>OAKLAND</city>
        <state>CA</state>
        <zip>94609</zip>
        <phone>(510) 653-6716</phone>
        <notes></notes>
    </location>
    <location id="74165" icon="Tnb Kiosk" lat="38.008426" long="-122.545279">
        <name>GATEWAY GAS</name>
        <street>1005 NORTHGATE DR</street>
        <city>SAN RAFAEL</city>
        <state>CA</state>
        <zip>94903</zip>
        <phone>(415) 492-8834</phone>
        <notes></notes>
    </location>
    <location id="74595" icon="Tnb Kiosk" lat="37.78024" long="-122.476961">
        <name>GEARY CONVENIENCE STORE</name>
        <street>5339 GEARY BLVD</street>
        <city>SAN FRANCISCO</city>
        <state>CA</state>
        <zip>94121</zip>
        <phone>(415) 750-1178</phone>
        <notes></notes>
    </location>
    <location id="15122" icon="SGS Location" lat="38.02837" long="-121.885419">
        <name>Golden Star Market</name>
        <street>44 W 10TH ST</street>
        <city>PITTSBURG</city>
        <state>CA</state>
        <zip>94565-2534</zip>
        <phone>925-439-9300</phone>
        <notes></notes>
    </location>
    <location id="61104" icon="SGS Location" lat="37.754637" long="-122.418671">
        <name>Groupex San Francisco</name>
        <street>2622 MISSION ST</street>
        <city>SAN FRANCISCO</city>
        <state>CA</state>
        <zip>94110-3102</zip>
        <phone>415-647-7038</phone>
        <notes></notes>
    </location>
    <location id="62545" icon="SGS Location" lat="37.941824" long="-122.347581">
        <name>HANDS LIQUOR</name>
        <street>662 23RD ST</street>
        <city>RICHMOND</city>
        <state>CA</state>
        <zip>94804-1454</zip>
        <phone>510-236-2201</phone>
        <notes></notes>
    </location>
    <location id="64375" icon="SGS Location" lat="39.157113" long="-123.20833">
        <name>HOLE IN THE WALL</name>
        <street>705 N STATE ST</street>
        <city>UKIAH</city>
        <state>CA</state>
        <zip>95482-3407</zip>
        <phone>707-462-5415</phone>
        <notes></notes>
    </location>
    <location id="73389" icon="Tnb Kiosk" lat="37.553614" long="-122.312946">
        <name>ISLANDERS MEAT &amp; GROCERIES</name>
        <street>1620 PALM AVE</street>
        <city>SAN MATEO</city>
        <state>CA</state>
        <zip>94402</zip>
        <phone>(650) 570-6663</phone>
        <notes></notes>
    </location>
    <location id="60719" icon="SGS Location" lat="37.34659" long="-121.833614">
        <name>JALENE PERFUMES AND JEWER</name>
        <street>2235 STORY RD</street>
        <city>SAN JOSE</city>
        <state>CA</state>
        <zip>95122-1055</zip>
        <phone>408-254-2555</phone>
        <notes></notes>
    </location>
    <location id="73183" icon="Tnb Kiosk" lat="37.738733" long="-122.414198">
        <name>JC SUPER</name>
        <street>820 CORTLAND AVE</street>
        <city>SAN FRANCISCO</city>
        <state>CA</state>
        <zip>94110</zip>
        <phone>(415) 648-4656</phone>
        <notes></notes>
    </location>
    <location id="73718" icon="Tnb Kiosk" lat="37.714934" long="-122.442284">
        <name>JC WIRELESS METRO PCS</name>
        <street>5260 MISSION ST</street>
        <city>SAN FRANCISCO</city>
        <state>CA</state>
        <zip>94112</zip>
        <phone>(415) 586-2600</phone>
        <notes></notes>
    </location>
    <location id="6720" icon="SGS Location" lat="37.655448" long="-122.411436">
        <name>Joyeria Deira #1</name>
        <street>349 GRAND AVE</street>
        <city>SOUTH SAN FRANCISCO</city>
        <state>CA</state>
        <zip>94080-3606</zip>
        <phone>650-583-3073</phone>
        <notes></notes>
    </location>
    <location id="8576" icon="SGS Location" lat="37.332091" long="-121.833714">
        <name>Joyeria Del Sol</name>
        <street>1712 OCALA AVE</street>
        <city>SAN JOSE</city>
        <state>CA</state>
        <zip>95122-2078</zip>
        <phone>408-729-8515</phone>
        <notes></notes>
    </location>
    <location id="6308" icon="SGS Location" lat="37.655448" long="-122.411436">
        <name>Joyeria Latina</name>
        <street>319 GRAND AVE</street>
        <city>SOUTH SAN FRANCISCO</city>
        <state>CA</state>
        <zip>94080-3606</zip>
        <phone>650-624-9622</phone>
        <notes></notes>
    </location>
    <location id="73185" icon="Tnb Kiosk" lat="37.649509" long="-122.468186">
        <name>KP VALERO</name>
        <street>3964 CALLAN BLVD</street>
        <city>S SAN FRANCISCO</city>
        <state>CA</state>
        <zip>94080</zip>
        <phone>(650) 837-9590</phone>
        <notes></notes>
    </location>
    <location id="74185" icon="Tnb Kiosk" lat="37.53379" long="-121.960832">
        <name>LA E TRICOLOR LLC #02</name>
        <street>40919 FREMONT BLVD # 19</street>
        <city>FREMONT</city>
        <state>CA</state>
        <zip>94538</zip>
        <phone>(510) 445-1880</phone>
        <notes></notes>
    </location>
    <location id="36470" icon="SGS Location" lat="37.935724" long="-122.349081">
        <name>La Raza Market #2</name>
        <street>2131 MACDONALD AVE</street>
        <city>RICHMOND</city>
        <state>CA</state>
        <zip>94801-3310</zip>
        <phone>510-232-4339</phone>
        <notes></notes>
    </location>
    <location id="61880" icon="SGS Location" lat="37.485301" long="-120.848976">
        <name>LA SONRISA INCOME TAX</name>
        <street>708 LANDER AVE</street>
        <city>TURLOCK</city>
        <state>CA</state>
        <zip>95380-5641</zip>
        <phone>209-656-8076</phone>
        <notes></notes>
    </location>
    <location id="8517" icon="SGS Location" lat="38.112397" long="-122.248582">
        <name>La Tapatia Market</name>
        <street>601 BROADWAY ST</street>
        <city>VALLEJO</city>
        <state>CA</state>
        <zip>94590-3322</zip>
        <phone>707-551-4890</phone>
        <notes></notes>
    </location>
    <location id="26815" icon="SGS Location" lat="38.293764" long="-122.283734">
        <name>La Tapatia MArket</name>
        <street>504 BROWN ST</street>
        <city>NAPA</city>
        <state>CA</state>
        <zip>94559-3346</zip>
        <phone>707-226-7587</phone>
        <notes></notes>
    </location>
    <location id="40252" icon="SGS Location" lat="37.693611" long="-122.1121">
        <name>Latino Wireless</name>
        <street>16438 E 14TH ST</street>
        <city>SAN LEANDRO</city>
        <state>CA</state>
        <zip>94578-3112</zip>
        <phone>510-276-5512</phone>
        <notes></notes>
    </location>
    <location id="60906" icon="SGS Location" lat="38.422512" long="-122.707348">
        <name>LOLAS MARKET</name>
        <street>1680 PETALUMA HILL RD</street>
        <city>SANTA ROSA</city>
        <state>CA</state>
        <zip>95404-5925</zip>
        <phone>707-571-7579</phone>
        <notes></notes>
    </location>
    <location id="62060" icon="SGS Location" lat="38.251766" long="-122.630396">
        <name>LOLAS MARKET #5</name>
        <street>241 N MCDOWELL BLVD</street>
        <city>PETALUMA</city>
        <state>CA</state>
        <zip>94954-2306</zip>
        <phone>707-571-7574</phone>
        <notes></notes>
    </location>
    <location id="73193" icon="Tnb Kiosk" lat="37.787817" long="-122.194558">
        <name>MACARTHUR 76</name>
        <street>4276 MACARTHUR BLVD</street>
        <city>OAKLAND</city>
        <state>CA</state>
        <zip>94619</zip>
        <phone>(510) 530-7683</phone>
        <notes></notes>
    </location>
    <location id="73192" icon="Tnb Kiosk" lat="37.809887" long="-121.216516">
        <name>MANTECA LIQUOR FOOD &amp; GAS</name>
        <street>890 N MAIN ST</street>
        <city>MANTECA</city>
        <state>CA</state>
        <zip>95336</zip>
        <phone>(209) 239-4550</phone>
        <notes></notes>
    </location>
    <location id="74721" icon="Tnb Kiosk" lat="37.962821" long="-122.50912">
        <name>MARIN FINANCIAL SOLUTIONS</name>
        <street>9 VIVIAN WAY</street>
        <city>SAN RAFAEL</city>
        <state>CA</state>
        <zip>94901</zip>
        <phone>(415) 485-1947</phone>
        <notes></notes>
    </location>
    <location id="73161" icon="Tnb Kiosk" lat="37.774641" long="-122.264386">
        <name>MARKET SPOT</name>
        <street>1200 LINCOLN AVE</street>
        <city>ALAMEDA</city>
        <state>CA</state>
        <zip>94501</zip>
        <phone>(510) 523-9041</phone>
        <notes></notes>
    </location>
    <location id="31738" icon="SGS Location" lat="37.962523" long="-122.345781">
        <name>Mercado La Hacienda</name>
        <street>2100 23RD ST</street>
        <city>SAN PABLO</city>
        <state>CA</state>
        <zip>94806-3638</zip>
        <phone>510-232-5144</phone>
        <notes></notes>
    </location>
    <location id="54677" icon="SGS Location" lat="37.782119" long="-122.415599">
        <name>Mex Express</name>
        <street>149 HYDE ST</street>
        <city>SAN FRANCISCO</city>
        <state>CA</state>
        <zip>94102-3605</zip>
        <phone>415-929-7860</phone>
        <notes></notes>
    </location>
    <location id="54674" icon="SGS Location" lat="37.762274" long="-122.419401">
        <name>Mex Express</name>
        <street>2141 MISSION ST</street>
        <city>SAN FRANCISCO</city>
        <state>CA</state>
        <zip>94110-1281</zip>
        <phone>415-355-9700</phone>
        <notes></notes>
    </location>
    <location id="54675" icon="SGS Location" lat="37.752555" long="-122.413256">
        <name>Mex Express</name>
        <street>3070 24TH ST</street>
        <city>SAN FRANCISCO</city>
        <state>CA</state>
        <zip>94110-4130</zip>
        <phone>415-821-7700</phone>
        <notes></notes>
    </location>
    <location id="54676" icon="SGS Location" lat="37.758768" long="-122.419061">
        <name>Mex Express</name>
        <street>2390 MISSION ST STE 105</street>
        <city>SAN FRANCISCO</city>
        <state>CA</state>
        <zip>94110-1836</zip>
        <phone>415-401-8781</phone>
        <notes></notes>
    </location>
    <location id="43285" icon="SGS Location" lat="37.558373" long="-122.007558">
        <name>Mi Terre Market</name>
        <street>37365 FREMONT BLVD</street>
        <city>FREMONT</city>
        <state>CA</state>
        <zip>94536-3743</zip>
        <phone>510-739-3808</phone>
        <notes></notes>
    </location>
    <location id="75057" icon="Tnb Kiosk" lat="37.828604" long="-122.268386">
        <name>MLK CAFE</name>
        <street>3860 MARTIN LUTHER KING JR WAY</street>
        <city>OAKLAND</city>
        <state>CA</state>
        <zip>94609</zip>
        <phone>(510) 450-0600</phone>
        <notes></notes>
    </location>
    <location id="41843" icon="SGS Location" lat="37.854035" long="-122.287613">
        <name>No Hassle Check Cashing</name>
        <street>2800 SAN PABLO AVE</street>
        <city>BERKELEY</city>
        <state>CA</state>
        <zip>94702-2204</zip>
        <phone>510-540-0495</phone>
        <notes></notes>
    </location>
    <location id="74180" icon="Tnb Kiosk" lat="37.759436" long="-122.432716">
        <name>NOE HILL MARKET</name>
        <street>4001 19TH ST</street>
        <city>SAN FRANCISCO</city>
        <state>CA</state>
        <zip>94114</zip>
        <phone>(415) 431-3030</phone>
        <notes></notes>
    </location>
    <location id="8435" icon="SGS Location" lat="38.226859" long="-122.613409">
        <name>Novedades Bricia</name>
        <street>409 PETALUMA BLVD S STE D</street>
        <city>PETALUMA</city>
        <state>CA</state>
        <zip>94952-4286</zip>
        <phone>707-766-8601</phone>
        <notes></notes>
    </location>
    <location id="33918" icon="SGS Location" lat="37.605876" long="-120.993927">
        <name>Novedades Lupita</name>
        <street>1649 CROWS LANDING RD</street>
        <city>MODESTO</city>
        <state>CA</state>
        <zip>95358-5606</zip>
        <phone>209-538-8986</phone>
        <notes></notes>
    </location>
    <location id="15376" icon="SGS Location" lat="37.775937" long="-122.222362">
        <name>OrderExpress CA007</name>
        <street>3546 INTERNATIONAL BLVD</street>
        <city>OAKLAND</city>
        <state>CA</state>
        <zip>94601-3522</zip>
        <phone>510-532-0311</phone>
        <notes></notes>
    </location>
    <location id="15383" icon="SGS Location" lat="38.550334" long="-122.474182">
        <name>OrderExpress CA080</name>
        <street>18615 SONOMA HWY 12 SUITE 106</street>
        <city>SONOMA</city>
        <state>CA</state>
        <zip>94576</zip>
        <phone>707-935-3224</phone>
        <notes></notes>
    </location>
    <location id="15380" icon="SGS Location" lat="37.76424" long="-122.419591">
        <name>OrderExpress CA082</name>
        <street>2065 MISSION ST</street>
        <city>SAN FRANCISCO</city>
        <state>CA</state>
        <zip>94110-1217</zip>
        <phone>415-552-6501</phone>
        <notes></notes>
    </location>
    <location id="74594" icon="Tnb Kiosk" lat="37.722966" long="-122.452875">
        <name>PACIFIC ENTERPRISES</name>
        <street>999 OCEAN AVE</street>
        <city>SAN FRANCISCO</city>
        <state>CA</state>
        <zip>94112</zip>
        <phone>(415) 585-8296</phone>
        <notes></notes>
    </location>
    <location id="73412" icon="Tnb Kiosk" lat="37.972417" long="-122.349418">
        <name>PEOPLES MARKET &amp; LIQUOR</name>
        <street>1474 BROADWAY AVE</street>
        <city>SAN PABLO</city>
        <state>CA</state>
        <zip>94806</zip>
        <phone>(510) 235-3443</phone>
        <notes></notes>
    </location>
    <location id="73196" icon="Tnb Kiosk" lat="37.705043" long="-122.129578">
        <name>PREMIER GASOLINE &amp; SNACKS</name>
        <street>15018 HESPERIAN BLVD</street>
        <city>SAN LEANDRO</city>
        <state>CA</state>
        <zip>94578</zip>
        <phone>(510) 357-7849</phone>
        <notes></notes>
    </location>
    <location id="38979" icon="SGS Location" lat="37.970122" long="-122.010872">
        <name>Quick Check Cashing #1</name>
        <street>3531 CLAYTON RD</street>
        <city>CONCORD</city>
        <state>CA</state>
        <zip>94519-2421</zip>
        <phone>925-674-1511</phone>
        <notes></notes>
    </location>
    <location id="38980" icon="SGS Location" lat="38.004971" long="-121.806166">
        <name>Quick Check Cashing #2</name>
        <street>1848 A ST</street>
        <city>ANTIOCH</city>
        <state>CA</state>
        <zip>94509-2602</zip>
        <phone>925-706-9400</phone>
        <notes></notes>
    </location>
    <location id="42297" icon="SGS Location" lat="37.961565" long="-121.712086">
        <name>Quick Check Cashing #3</name>
        <street>6660 LONE TREE WAY STE 6</street>
        <city>BRENTWOOD</city>
        <state>CA</state>
        <zip>94513-5310</zip>
        <phone>925-634-0020</phone>
        <notes></notes>
    </location>
    <location id="73524" icon="Tnb Kiosk" lat="37.352796" long="-121.880622">
        <name>RANCHO MARKET</name>
        <street>500 N 17TH ST</street>
        <city>SAN JOSE</city>
        <state>CA</state>
        <zip>95112</zip>
        <phone>(408) 293-4204</phone>
        <notes></notes>
    </location>
    <location id="73450" icon="Tnb Kiosk" lat="37.954881" long="-122.334049">
        <name>RC LIQUORS</name>
        <street>13350 SAN PABLO AVE # A8</street>
        <city>SAN PABLO</city>
        <state>CA</state>
        <zip>94806</zip>
        <phone>(510) 215-2229</phone>
        <notes></notes>
    </location>
    <location id="74923" icon="Tnb Kiosk" lat="37.98123" long="-122.566634">
        <name>REDHILL CONVENIENCE &amp; FUEL</name>
        <street>930 SIR FRANCIS DRAKE BLVD</street>
        <city>SAN ANSELMO</city>
        <state>CA</state>
        <zip>94960</zip>
        <phone>(415) 457-5858</phone>
        <notes></notes>
    </location>
    <location id="73287" icon="Tnb Kiosk" lat="37.613096" long="-121.018792">
        <name>RIVERVIEW MARKET</name>
        <street>1800 ROBERTSON RD</street>
        <city>MODESTO</city>
        <state>CA</state>
        <zip>95351</zip>
        <phone>(209) 521-0177</phone>
        <notes></notes>
    </location>
    <location id="73810" icon="Tnb Kiosk" lat="37.930695" long="-122.362666">
        <name>S &amp; S MARKET</name>
        <street>112 S 7TH ST</street>
        <city>RICHMOND</city>
        <state>CA</state>
        <zip>94804</zip>
        <phone>(510) 237-0527</phone>
        <notes></notes>
    </location>
    <location id="73685" icon="Tnb Kiosk" lat="37.719405" long="-122.438458">
        <name>SAN FRANCISCO FARMERS MARKET</name>
        <street>4929 MISSION ST</street>
        <city>SAN FRANCISCO</city>
        <state>CA</state>
        <zip>94112</zip>
        <phone>(415) 334-0428</phone>
        <notes></notes>
    </location>
    <location id="74164" icon="Tnb Kiosk" lat="37.995886" long="-122.528379">
        <name>SANTA VENETIA MARKET</name>
        <street>71 SAN PABLO AVE</street>
        <city>SAN RAFAEL</city>
        <state>CA</state>
        <zip>94903</zip>
        <phone>(415) 472-3230</phone>
        <notes></notes>
    </location>
    <location id="37095" icon="SGS Location" lat="37.332735" long="-121.876151">
        <name>Satelite Morelos Bay Area</name>
        <street>414 E WILLIAM ST STE C</street>
        <city>SAN JOSE</city>
        <state>CA</state>
        <zip>95112-3736</zip>
        <phone>408-224-1014</phone>
        <notes></notes>
    </location>
    <location id="73565" icon="Tnb Kiosk" lat="38.00416" long="-122.304471">
        <name>SMART STOP</name>
        <street>1007 SAN PABLO AVE</street>
        <city>PINOLE</city>
        <state>CA</state>
        <zip>94564</zip>
        <phone>(510) 724-8527</phone>
        <notes></notes>
    </location>
    <location id="74366" icon="Tnb Kiosk" lat="37.517361" long="-122.271205">
        <name>SOUTH CITY SERVICE STATION INC</name>
        <street>701 HARBOR BLVD</street>
        <city>BELMONT</city>
        <state>CA</state>
        <zip>94002</zip>
        <phone>(650) 591-3633</phone>
        <notes></notes>
    </location>
    <location id="14705" icon="SGS Location" lat="37.480187" long="-122.198576">
        <name>Super Pure Water</name>
        <street>826 5TH AVE</street>
        <city>REDWOOD CITY</city>
        <state>CA</state>
        <zip>94063-3915</zip>
        <phone>650-701-0415</phone>
        <notes></notes>
    </location>
    <location id="74674" icon="Tnb Kiosk" lat="37.787748" long="-122.420181">
        <name>SUPERONE MARKET</name>
        <street>1185 SUTTER ST</street>
        <city>SAN FRANCISCO</city>
        <state>CA</state>
        <zip>94109</zip>
        <phone>(415) 744-1466</phone>
        <notes></notes>
    </location>
    <location id="74349" icon="Tnb Kiosk" lat="37.788203" long="-122.416657">
        <name>SUTTER FINE FOODS</name>
        <street>988 SUTTER ST</street>
        <city>SAN FRANCISCO</city>
        <state>CA</state>
        <zip>94109</zip>
        <phone>(415) 776-7079</phone>
        <notes></notes>
    </location>
    <location id="40896" icon="SGS Location" lat="37.719656" long="-122.160848">
        <name>TELEXPRESS</name>
        <street>1793 E 14TH ST</street>
        <city>SAN LEANDRO</city>
        <state>CA</state>
        <zip>94577-4802</zip>
        <phone>510-352-1732</phone>
        <notes></notes>
    </location>
    <location id="74385" icon="Tnb Kiosk" lat="38.119176" long="-122.274523">
        <name>THE BBC STORE</name>
        <street>829 WILSON AVE</street>
        <city>VALLEJO</city>
        <state>CA</state>
        <zip>94590</zip>
        <phone>(707) 554-6925</phone>
        <notes></notes>
    </location>
    <location id="06122015110333671" icon="Tnb Kiosk" lat="37.971382" long="-122.521147">
        <name>THE GOLD DROP CASH FOR GOLD</name>
        <street>901 IRWIN ST # B</street>
        <city>SAN RAFAEL</city>
        <state>CA</state>
        <zip>94901</zip>
        <phone>(415) 459-1000</phone>
        <notes></notes>
    </location>
    <location id="34759" icon="SGS Location" lat="37.720647" long="-122.442853">
        <name>U Send Express #1</name>
        <street>5483 Mission St</street>
        <city>SAN FRANCISCO</city>
        <state>CA</state>
        <zip>94112</zip>
        <phone>415-469-2174</phone>
        <notes></notes>
    </location>
    <location id="34760" icon="SGS Location" lat="37.783702" long="-122.414413">
        <name>U Send Express #2</name>
        <street>409 EDDY ST</street>
        <city>SAN FRANCISCO</city>
        <state>CA</state>
        <zip>94109-8104</zip>
        <phone>415-673-1114</phone>
        <notes></notes>
    </location>
    <location id="8417" icon="SGS Location" lat="37.492745" long="-120.849555">
        <name>Universal Jewelers</name>
        <street>229 W MAIN ST</street>
        <city>TURLOCK</city>
        <state>CA</state>
        <zip>95380-4812</zip>
        <phone>209-667-7804</phone>
        <notes></notes>
    </location>
    <location id="73169" icon="Tnb Kiosk" lat="38.145193" long="-122.234738">
        <name>VALERO GAS</name>
        <street>1610 FAIRGROUNDS DR</street>
        <city>VALLEJO</city>
        <state>CA</state>
        <zip>94589</zip>
        <phone>(707) 647-1696</phone>
        <notes></notes>
    </location>
    <location id="73195" icon="Tnb Kiosk" lat="37.609729" long="-120.938089">
        <name>VALLEY MART</name>
        <street>1460 MITCHELL RD STE A</street>
        <city>MODESTO</city>
        <state>CA</state>
        <zip>95351</zip>
        <phone>(209) 538-0686</phone>
        <notes></notes>
    </location>
    <location id="74532" icon="Tnb Kiosk" lat="37.963473" long="-122.509564">
        <name>VARIEDADES CELULARES</name>
        <street>26 MEDWAY RD</street>
        <city>SAN RAFAEL</city>
        <state>CA</state>
        <zip>94901</zip>
        <phone>(415) 453-6555</phone>
        <notes></notes>
    </location>
    <location id="33180" icon="SGS Location" lat="37.787864" long="-122.404266">
        <name>Wireless Gadgets</name>
        <street>10 GEARY ST</street>
        <city>SAN FRANCISCO</city>
        <state>CA</state>
        <zip>94108-5702</zip>
        <phone>415-433-9993</phone>
        <notes></notes>
    </location>
</locations>
